{"cinemas": [
	{ "cinema": "Omniplex Antrim", "town": "Antrim", "latitude": 54.730423, "longitude": -6.233135 },
	{ "cinema": "Ominiplex Arklow", "town": "Arklow", "latitude": 52.7982, "longitude": -6.1493 },
	{ "cinema": "Ominiplex Armagh", "town": "Armagh", "latitude": 54.3517, "longitude": -6.4119 },
	{ "cinema": "Showtime Cinemas", "town": "Ashbourne", "latitude": 53.5219, "longitude": -6.4124 },
	{ "cinema": "IMC Athlone", "town": "Athlone", "latitude": 53.4267, "longitude": -7.93716 },
	{ "cinema": "Omniplex Balbriggan", "town": "Balbriggan", "latitude": 53.6109, "longitude": -6.1818 },
	{ "cinema": "IMC Ballina", "town": "Ballina", "latitude": 54.1102, "longitude": -9.15748 },
	{ "cinema": "The Reel Picture, Ballincoollig", "town": "Ballincoollig", "latitude": 51.8898, "longitude": -8.58049 },
	{ "cinema": "IMC Ballymena", "town": "Ballymena", "latitude": 54.8495, "longitude": -6.2715 },
	{ "cinema": "IMC Banbridge", "town": "Banbridge", "latitude": 54.3502, "longitude": -6.2705 },
	{ "cinema": "Omniplex Banbridge", "town": "Banbridge", "latitude": 54.330811, "longitude": -6.2758 },
	{ "cinema": "Omniplex Bangor", "town": "Bangor", "latitude": 54.6553, "longitude": -5.6652 },
	{ "cinema": "Bantry Cinemax", "town": "Bantry", "latitude": 51.6802, "longitude": -9.4578 },
	{ "cinema": "ODEON Blanchardstown", "town": "Blanchardstown", "latitude": 53.3939, "longitude": -6.3881 },
	{ "cinema": "Eclipse Cinemas Bundoran", "town": "Bundoran", "latitude": 54.4753, "longitude": -8.28164 },
	{ "cinema": "IMC Carlow", "town": "Carlow", "latitude": 52.8370074, "longitude": -6.9252149 },
	{ "cinema": "Omniplex Carlow", "town": "Carlow", "latitude": 52.835336, "longitude": -6.930034 },
	{ "cinema": "Carrick Cineplex", "town": "Carrick-on-Shannon", "latitude": 53.9428, "longitude": -8.1042 },
	{ "cinema": "Omniplex Carrickfergus", "town": "Carrickfergus", "latitude": 54.7121941, "longitude": -5.8147732 },
	{ "cinema": "Mayo Movieworld", "town": "Castlebar", "latitude": 53.8566, "longitude": -9.2869 },
	{ "cinema": "ODEON Cavan Town", "town": "Cavan", "latitude": 53.9795, "longitude": -7.34879 },
	{ "cinema": "Park Cinema, Clonakilty", "town": "Clonakilty", "latitude": 51.6231938, "longitude": -8.9553624 },
	{ "cinema": "IMC Clonmel", "town": "Clonmel", "latitude": 52.3556, "longitude": -7.69536 },
	{ "cinema": "Movie House, Coleraine", "town": "Coleraine", "latitude": 55.1189, "longitude": -6.6743 },
	{ "cinema": "The Ritz, Cookstown ", "town": "Cookstown", "latitude": 54.6469, "longitude": -6.747 },
	{ "cinema": "Omniplex Craigavon", "town": "Craigavon", "latitude": 54.449641, "longitude": -6.397542 },
	{ "cinema": "Phoenix Cinema, Dingle", "town": "Dingle", "latitude": 52.1402, "longitude": -10.269 },
	{ "cinema": "Cinema World, Douglas", "town": "Douglas", "latitude": 51.8783, "longitude": -8.43514 },
	{ "cinema": "Omniplex Downpatrick", "town": "Downpatrick", "latitude": 54.323381, "longitude": -5.713719 },
	{ "cinema": "The Arc Cinema, Drogheda", "town": "Drogheda", "latitude": 53.7086, "longitude": -6.3311 },
	{ "cinema": "IMC Dun Laoighre", "town": "Dun Laoighre", "latitude": 53.293, "longitude": -6.1384 },
	{ "cinema": "IMC Dundalk", "town": "Dundalk", "latitude": 53.998, "longitude": -6.40522 },
	{ "cinema": "Omniplex Dundalk", "town": "Dundalk", "latitude": 53.990212, "longitude": -6.377783 },
	{ "cinema": "Omniplex Dungannon", "town": "Dungannon", "latitude": 54.511856, "longitude": -6.763002 },
	{ "cinema": "SGC Dungarvan", "town": "Dungarvan", "latitude": 52.094021, "longitude": -7.63026 },
	{ "cinema": "Empire Movieplex", "town": "Ennis", "latitude": 52.8482, "longitude": -8.98417 },
	{ "cinema": "IMC Enniskillen", "town": "Enniskillen", "latitude": 54.3522, "longitude": -7.6352 },
	{ "cinema": "Movie House, Glengormley", "town": "Glengormley", "latitude": 54.6682, "longitude": -5.9558 },	
	{ "cinema": "IMC Kilkenny", "town": "Kilkenny", "latitude": 52.6588, "longitude": -7.24786 },
	{ "cinema": "Cinema Killarney", "town": "Killarney", "latitude": 52.0585, "longitude": -9.5053 },
	{ "cinema": "Omniplex Larne", "town": "Larne", "latitude": 54.846069, "longitude": -5.802695 },
	{ "cinema": "Century Cinemas Letterkenny", "town": "Letterkenny", "latitude": 54.9459, "longitude": -7.74416 },
	{ "cinema": "Eclipse Cinemas, Lifford/Strabane", "town": "Lifford", "latitude": 54.8309442, "longitude": -7.4742949 },
	{ "cinema": "Listowel Classic Movieplex", "town": "Listowel", "latitude": 52.4488, "longitude": -9.486 },
	{ "cinema": "Omniplex Longford", "town": "Longford", "latitude": 53.7303, "longitude": -7.802 },
	{ "cinema": "Movie House, Maghera", "town": "Maghera", "latitude": 54.8438, "longitude": -6.6732 },
	{ "cinema": "Gate Multiplex, Mallow", "town": "Mallow", "latitude": 52.138, "longitude": -8.6418},
	{ "cinema": "Gate Multiplex, Midleton", "town": "Midleton", "latitude": 51.9175, "longitude": -8.1777 },
	{ "cinema": "Omniplex Monaghan", "town": "Monaghan", "latitude": 54.2425007, "longitude": -7.0668809 },
	{ "cinema": "IMC Mullingar", "town": "Mullingar", "latitude": 53.5247, "longitude": -7.3445 },
	{ "cinema": "ODEON Naas", "town": "Naas", "latitude": 53.2258, "longitude": -6.6504 },
	{ "cinema": "Ormond Cineplex, Nenagh", "town": "Nenagh", "latitude": 52.8624, "longitude": -8.19383 },
	{ "cinema": "ODEON Newbridge", "town": "Newbridge", "latitude": 53.1774866, "longitude": -6.7998357 },
	{ "cinema": "Omniplex Newry", "town": "Newry", "latitude": 54.1787, "longitude": -6.3381 },
	{ "cinema": "IMC Newtownards", "town": "Newtownards", "latitude": 54.5929, "longitude": -5.7087 },
	{ "cinema": "IMC Omagh", "town": "Omagh", "latitude": 54.8333, "longitude": -7.3257 },
	{ "cinema": "Omniplex Omagh", "town": "Omagh", "latitude": 54.5976028, "longitude": -7.3013446 },
	{ "cinema": "IMC Oranmore", "town": "Oranmore", "latitude": 53.2753, "longitude": -8.9254 },
	{ "cinema": "ODEON Portlaoise", "town": "Portlaoise", "latitude": 53.0357, "longitude": -7.2983 },
	{ "cinema": "C&L Plex", "town": "Roscommon", "latitude": 53.633101, "longitude": -8.181257 },
	{ "cinema": "IMC Santry", "town": "Santry", "latitude": 53.3933, "longitude": -6.2499 },
	{ "cinema": "Omniplex Sligo", "town": "Sligo", "latitude": 54.2721, "longitude": -8.4772 },
	{ "cinema": "Movies at Swords", "town": "Swords", "latitude": 53.4543, "longitude": -6.2165 },
	{ "cinema": "IMC Tallaght", "town": "Tallaght", "latitude": 53.286131, "longitude": -6.371486 },
	{ "cinema": "IMC Thurles", "town": "Thurles", "latitude": 52.6806, "longitude": -7.8149 },	
	{ "cinema": "Omniplex Tralee", "town": "Tralee", "latitude": 52.2674, "longitude": -9.7081 },
	{ "cinema": "IMC Tullamore", "town": "Tullamore", "latitude": 53.2748, "longitude": -7.4928 },
	{ "cinema": "The W Cinema", "town": "Westport", "latitude": 53.799941, "longitude": -9.523778 },
	{ "cinema": "Omniplex Wexford", "town": "Wexford", "latitude": 52.3256, "longitude": -6.4507 },
	{ "cinema": "The Arc Cinema, Wexford", "town": "Wexford", "latitude": 52.3516636, "longitude": -6.4802488},
	{ "cinema": "Regal Cinema", "town": "Youghal", "latitude": 51.95079, "longitude": -7.84516}
]}